City_ID,City,Lat,Lng,Max Temp,Humidity,Cloudiness,Wind Speed,Country,Date
0,klyuchi,52.2667,79.1667,-9.81,89,7,2.54,RU,1732724974
1,rouyn-noranda,48.2398,-79.0288,-2.95,86,100,3.6,CA,1732724976
2,jixi,45.3,130.9667,-15.39,97,38,1.29,CN,1732724977
3,albany,42.6001,-73.9662,6.86,59,70,3.13,US,1732724418
4,abbadia san salvatore,42.8821,11.6695,11.29,88,100,1.01,IT,1732724980
5,flin flon,54.7682,-101.865,-14.09,92,100,2.57,CA,1732724981
6,port-aux-francais,-49.35,70.2167,3.71,80,99,10.47,TF,1732724982
7,creel,27.75,-107.6333,14.88,19,99,2.94,MX,1732724983
8,kodiak,57.79,-152.4072,-2.27,74,0,2.57,US,1732724984
9,iqaluit,63.7506,-68.5145,-13.15,72,100,3.6,CA,1732724960
10,palmas,-10.2128,-48.3603,30.93,70,75,3.6,BR,1732724757
11,ushuaia,-54.8,-68.3,9.81,62,0,5.66,AR,1732724988
12,enewetak,11.3474,162.3373,27.95,83,90,9.45,MH,1732724989
13,urengoy,65.9667,78.3667,1.83,89,100,9.96,RU,1732724990
14,fruitland,38.3221,-75.6202,11.66,55,0,2.57,US,1732724991
15,talovskiy,51.1144,40.73,0.34,78,100,1.24,RU,1732724992
16,puerto natales,-51.7236,-72.4875,18.25,42,0,4.12,CL,1732724993
17,holualoa,19.6228,-155.9522,20.48,70,0,2.06,US,1732724995
18,luena,-11.7833,19.9167,19.16,94,100,2.54,AO,1732724996
19,al jawf,29.5,38.75,11.01,39,0,3.23,SA,1732724997
20,manggar,-2.8833,108.2667,24.87,91,100,2.04,ID,1732724998
21,hermanus,-34.4187,19.2345,16.56,70,87,5.56,ZA,1732724999
22,carnarvon,-24.8667,113.6333,27.01,48,0,2.24,AU,1732725000
23,buriti dos lopes,-3.175,-41.8669,38.51,24,98,5.82,BR,1732725001
24,dudinka,69.4058,86.1778,0.37,97,100,11.37,RU,1732725003
25,chiredzi,-21.05,31.6667,30.99,42,67,4.37,ZW,1732725004
26,puerto ayora,-0.7393,-90.3518,21.42,98,92,3.58,EC,1732725005
27,labrador city,52.9463,-66.9114,-2.05,97,100,3.6,CA,1732725006
28,bethel,41.3712,-73.414,9.18,59,0,3.09,US,1732724829
29,prainha,-1.8,-53.48,35.55,32,62,3.64,BR,1732725008
30,loch garman,52.3342,-6.4575,6.61,96,60,2.24,IE,1732724770
31,bredasdorp,-34.5322,20.0403,16.66,71,82,5.37,ZA,1732725011
32,port mathurin,-19.6833,63.4167,24.87,75,31,11.02,MU,1732725012
33,lebu,-37.6167,-73.65,14.8,60,5,4.54,CL,1732725013
34,hamilton,39.1834,-84.5333,8.21,69,100,4.63,US,1732724849
35,udachny,66.4167,112.4,-20.13,99,51,2.88,RU,1732725015
36,huadian,42.9633,126.7478,-8.21,88,100,5.76,CN,1732725017
37,ugoofaaru,5.6667,73.0,27.28,78,94,3.5,MV,1732725018
38,merta,26.65,74.0333,19.92,31,0,2.28,IN,1732725019
39,fisterra,42.9049,-9.2629,15.35,82,86,8.94,ES,1732725020
40,mundri,-6.9558,111.71,26.31,85,100,0.96,ID,1732725022
41,talnakh,69.4865,88.3972,-0.56,98,100,6.86,RU,1732725023
42,colares,38.7992,-9.4469,18.27,58,0,2.57,PT,1732725024
43,motueka,-41.1333,173.0167,14.5,84,7,1.48,NZ,1732725025
44,kerikeri,-35.2268,173.9474,12.73,90,17,1.53,NZ,1732725026
45,stanley,54.868,-1.6985,3.06,91,20,2.57,GB,1732725027
46,howard springs,-12.497,131.047,26.95,95,99,1.21,AU,1732725029
47,edinburgh of the seven seas,-37.0676,-12.3116,14.86,81,9,10.47,SH,1732725030
48,blackmans bay,-43.0167,147.3167,12.07,96,100,5.87,AU,1732725031
49,ta`u,-14.2336,-169.5144,27.66,80,93,6.73,AS,1732725032
50,waitangi,-43.9535,-176.5597,11.44,73,38,2.53,NZ,1732725033
51,sitka,57.0531,-135.33,2.94,87,75,3.6,US,1732725005
52,papatowai,-46.5619,169.4708,18.43,54,100,4.51,NZ,1732725036
53,bikenibeu village,1.3673,173.1241,28.98,74,20,5.66,KI,1732725037
54,altai,46.3722,96.2583,-10.17,53,7,1.48,MN,1732725038
55,coquimbo,-29.9533,-71.3436,18.85,63,0,6.69,CL,1732724991
56,anadyr,64.75,177.4833,-2.72,86,100,5.0,RU,1732725040
57,atafu village,-8.5421,-172.5159,28.48,69,49,5.32,TK,1732725042
58,papao,-17.75,-149.55,25.82,75,94,5.93,PF,1732725043
59,grytviken,-54.2811,-36.5092,1.44,67,38,3.05,GS,1732725044
60,ribeira grande,38.5167,-28.7,19.22,63,40,10.8,PT,1732725046
61,laoag,18.1989,120.5936,25.35,85,94,8.82,PH,1732725047
62,isafjordur,66.0755,-23.124,0.02,64,75,10.29,IS,1732725049
63,colonia,50.9333,6.95,12.85,78,75,9.77,DE,1732724998
64,huarmey,-10.0681,-78.1522,21.75,73,55,3.65,PE,1732725051
65,pangkalpinang,-2.1333,106.1333,23.99,93,100,1.66,ID,1732725052
66,west island,-12.1568,96.8225,27.99,94,96,5.66,CC,1732725053
67,namibe,-15.1961,12.1522,21.92,76,49,4.05,AO,1732725054
68,zhoushan,30.0108,122.2047,9.93,48,0,8.91,CN,1732725056
69,hawaiian paradise park,19.5933,-154.9731,21.05,77,20,2.57,US,1732725057
70,avarua,-21.2078,-159.775,23.03,88,100,3.09,CK,1732725058
71,margaret river,-33.95,115.0667,15.37,60,0,5.78,AU,1732724899
72,kismayo,-0.3582,42.5454,27.72,79,28,3.92,SO,1732725060
73,walvis bay,-22.9575,14.5053,21.53,52,0,5.66,NA,1732725062
74,tazacorte,28.629,-17.9293,23.42,78,20,2.06,ES,1732725063
75,visakhapatnam,17.69,83.2093,24.94,57,75,3.6,IN,1732725064
76,rongelap,11.1635,166.8941,28.1,81,78,9.62,MH,1732725065
77,yelan',50.949,43.7378,0.59,85,100,2.41,RU,1732725066
78,nikolayevsk-on-amure,53.1406,140.73,-1.33,96,100,6.04,RU,1732725067
79,tutong,4.8,114.65,26.66,86,72,2.08,BN,1732725069
80,cill airne,52.05,-9.5167,4.03,87,0,1.54,IE,1732725070
81,bhimunipatnam,17.8833,83.4333,24.73,63,100,5.82,IN,1732725071
82,gadzhiyevo,69.2551,33.3362,-8.66,89,6,4.07,RU,1732725072
83,burutu,5.3509,5.5076,29.11,64,40,3.8,NG,1732725073
84,alo,6.5486,4.2686,28.08,70,8,3.96,NG,1732725074
85,tolanaro,-25.0319,46.9987,28.04,74,40,10.8,MG,1732725075
86,bayanhongor,46.7167,100.1167,-20.21,85,58,1.08,MN,1732725077
87,nadi,-17.8,177.4167,25.0,88,75,1.54,FJ,1732725049
88,kingston,17.997,-76.7936,26.53,83,75,0.51,JM,1732725008
89,tura,25.5198,90.2201,16.84,83,25,1.68,IN,1732725081
90,darwin,-12.4611,130.8418,26.99,89,81,2.06,AU,1732725083
91,shache,38.4167,77.2406,1.04,43,1,2.3,CN,1732725084
92,shakiso,5.75,38.9167,16.62,82,73,1.54,ET,1732725085
93,aasiaat,68.7098,-52.8699,-20.35,86,61,5.71,GL,1732724973
94,semera,11.501,41.201,29.67,31,5,3.34,ET,1732725087
95,adamstown,-25.066,-130.1015,22.5,81,86,10.02,PN,1732725089
96,yaren,-0.5472,166.916,27.69,77,97,6.28,NR,1732725090
97,houghton,47.1219,-88.569,-1.29,84,100,5.66,US,1732724904
98,vorgashor,67.5833,63.95,-1.36,87,97,6.11,RU,1732725092
99,tazovsky,67.4667,78.7,1.25,81,100,14.82,RU,1732725095
100,preobrazheniye,42.9019,133.9064,-3.02,51,2,2.56,RU,1732725096
101,college,64.8569,-147.8028,-28.01,76,40,0.0,US,1732725097
102,prieska,-29.6641,22.7474,23.13,16,1,6.34,ZA,1732725098
103,greymouth,-42.4667,171.2,14.21,96,100,1.24,NZ,1732725100
104,haiku-pauwela,20.9219,-156.3051,22.8,88,40,4.02,US,1732725101
105,fauske,67.2588,15.3918,-5.24,80,82,3.16,NO,1732725102
106,rio gallegos,-51.6226,-69.2181,15.03,38,0,2.06,AR,1732724962
107,vila franca do campo,37.7167,-25.4333,18.27,99,82,7.62,PT,1732725104
108,linden,6.0,-58.3,34.91,31,20,2.22,GY,1732725105
109,den burg,53.0542,4.7972,9.99,87,100,14.4,NL,1732725107
110,homer,59.6425,-151.5483,-6.24,79,0,1.54,US,1732725108
111,qaqortoq,60.7167,-46.0333,-6.34,69,78,4.38,GL,1732724952
112,dahab,28.501,34.5134,18.37,42,0,6.45,EG,1732725110
113,sorochinsk,52.4338,53.1583,-2.12,61,24,1.25,RU,1732725111
114,talcahuano,-36.7167,-73.1167,17.82,42,20,6.69,CL,1732725088
115,yellowknife,62.456,-114.3525,-24.69,77,20,5.66,CA,1732725114
116,invercargill,-46.4,168.35,18.34,65,100,4.92,NZ,1732725115
117,onega,63.9061,38.1404,0.84,99,100,1.32,RU,1732725116
118,port elizabeth,-33.918,25.5701,17.16,99,75,10.29,ZA,1732725117
119,hithadhoo,-0.6,73.0833,28.08,79,84,7.78,MV,1732725118
120,kralendijk,12.15,-68.2667,31.99,70,75,7.2,BQ,1732725117
121,tiksi,71.6872,128.8694,-16.1,77,100,13.73,RU,1732725121
122,temiskaming shores,47.4938,-79.7153,-3.11,66,92,5.16,CA,1732725122
123,viedma,-40.8135,-62.9967,23.07,24,1,7.25,AR,1732725078
124,pekan,3.4836,103.3996,24.02,94,99,2.27,MY,1732725124
125,antofagasta,-23.65,-70.4,21.6,77,69,4.2,CL,1732724992
126,saint clairsville,40.0806,-80.9001,4.96,74,100,2.04,US,1732725126
127,macapa,0.0389,-51.0664,33.99,52,40,4.63,BR,1732725128
128,iskateley,67.6803,53.1512,-4.01,91,14,4.6,RU,1732725129
129,bilibino,68.0546,166.4372,-15.3,98,99,1.07,RU,1732725130
130,carauari,-4.8828,-66.8958,29.33,66,91,2.25,BR,1732725131
131,rio grande,-32.035,-52.0986,25.31,80,72,1.9,BR,1732725022
132,tejen,37.3834,60.5054,20.54,29,100,3.27,TM,1732725133
133,sisimiut,66.9395,-53.6735,-13.87,70,59,6.8,GL,1732725135
134,vorkuta,67.5,64.0,-1.05,86,96,5.93,RU,1732725136
135,dawson creek,55.7666,-120.2362,-15.2,78,100,1.54,CA,1732725137
136,general pico,-35.6566,-63.7568,24.95,25,59,5.78,AR,1732725138
137,lorengau,-2.0226,147.2712,28.42,78,100,5.32,PG,1732725139
138,port hedland,-20.3167,118.5667,28.03,78,90,4.12,AU,1732725140
139,pacific grove,36.6177,-121.9166,12.03,88,0,6.71,US,1732725142
140,mejit,10.2753,170.8646,27.94,80,100,9.43,MH,1732725143
141,utrik,11.2278,169.8474,28.24,79,99,9.4,MH,1732725144
142,ilulissat,69.2167,-51.1,-14.99,72,75,12.86,GL,1732725145
143,lihue,21.9789,-159.3672,20.77,88,40,2.57,US,1732725146
144,bubaque,11.2833,-15.8333,28.31,68,0,4.98,GW,1732725149
145,suomussalmi,64.8869,28.9078,0.01,99,100,2.84,FI,1732725150
146,hilo,19.7297,-155.09,20.62,77,20,2.57,US,1732725151
147,akureyri,65.6835,-18.0878,6.96,53,75,10.8,IS,1732725152
148,cockburn town,21.4612,-71.1419,26.09,81,100,6.79,TC,1732725003
149,whitehorse,60.7161,-135.0538,-13.57,84,100,4.12,CA,1732725154
150,hovd,48.0056,91.6419,-8.04,48,0,2.35,MN,1732725156
151,copiapo,-27.3667,-70.3333,29.13,28,1,4.25,CL,1732725122
152,coahuayana de hidalgo,18.7,-103.6583,30.04,60,1,1.51,MX,1732725158
153,mto wa mbu,-3.35,35.85,26.95,48,65,2.02,TZ,1732725159
154,man,7.4125,-7.5538,31.4,28,70,1.77,CI,1732725161
155,yarmouth,41.7057,-70.2286,11.19,60,0,5.66,US,1732725162
156,yeniseysk,58.4497,92.1703,0.37,78,99,4.63,RU,1732725163
157,zouerate,22.7187,-12.4521,28.41,15,100,6.34,MR,1732725164
158,robertsport,6.7533,-11.3686,28.24,69,30,5.75,LR,1732725165
159,longyearbyen,78.2186,15.6401,-10.09,52,75,7.2,SJ,1732725166
160,kupang,-10.1667,123.5833,28.32,94,66,1.03,ID,1732725167
161,cam ranh,11.9214,109.1591,23.98,94,75,10.8,VN,1732725169
162,san luis,-33.295,-66.3356,19.06,72,84,8.11,AR,1732725000
163,grand falls-windsor,48.9332,-55.6649,3.61,90,100,0.45,CA,1732725047
164,east london,-33.0153,27.9116,19.58,64,8,11.54,ZA,1732725172
165,thunder bay,48.4001,-89.3168,-4.01,74,75,5.66,CA,1732725173
166,island harbour,50.724,-1.2758,6.04,65,100,2.68,GB,1732725174
167,vilyuchinsk,52.9306,158.4028,-4.85,73,7,3.42,RU,1732725176
168,badger,64.8,-147.5333,-22.86,74,40,0.0,US,1732725177
169,beidaihehaibin,39.8222,119.5181,-0.6,44,32,7.35,CN,1732725178
170,puerto baquerizo moreno,-0.9,-89.6,22.55,83,100,7.2,EC,1732725006
171,garachico,28.7781,-17.7646,21.94,73,20,2.06,ES,1732725180
172,lethbridge,49.7,-112.8186,-13.73,85,75,2.57,CA,1732725155
173,kristiansund,63.1115,7.732,-0.64,86,0,2.06,NO,1732725183
174,letlhakane,-21.4167,25.5833,30.92,31,62,4.18,BW,1732725152
175,prado,-17.3411,-39.2208,26.7,67,62,4.8,BR,1732725185
176,san patricio,28.017,-97.5169,23.97,77,91,5.39,US,1732725186
177,kone,-21.0595,164.8658,24.5,91,100,1.76,NC,1732725187
178,fairbanks,64.8378,-147.7164,-28.0,76,40,0.0,US,1732725188
179,masterton,-40.9597,175.6575,10.82,98,22,2.03,NZ,1732725190
180,nova sintra,14.8667,-24.7167,25.09,77,34,6.49,CV,1732725191
181,nikol'sk,53.7189,46.0712,-5.36,91,58,1.87,RU,1732725192
182,mount gambier,-37.8333,140.7667,10.62,99,79,1.56,AU,1732725193
183,kapa'a,22.0752,-159.319,21.18,94,40,2.57,US,1732725194
184,nosy varika,-20.5833,48.5333,25.67,77,17,4.47,MG,1732725195
185,morehead city,34.7229,-76.726,19.0,66,0,3.6,US,1732725196
186,minas de marcona,-15.2119,-75.1103,21.55,56,83,5.09,PE,1732725198
187,palikir - national government center,6.9248,158.1611,27.41,78,40,2.06,FM,1732725199
188,alice springs,-23.7,133.8833,22.75,49,40,2.57,AU,1732725200
189,gunsan,35.9786,126.7114,5.94,52,40,11.32,KR,1732725202
190,daru,-9.0763,143.2092,27.17,86,100,4.19,PG,1732725204
191,sur,22.5667,59.5289,26.12,57,0,1.94,OM,1732725206
192,sambava,-14.2667,50.1667,25.63,80,40,4.45,MG,1732725207
193,alotau,-10.3069,150.4462,25.27,93,99,2.31,PG,1732725208
194,georgetown,5.4112,100.3354,25.96,82,20,5.66,MY,1732725202
195,pasni,25.2631,63.471,26.12,75,0,5.0,PK,1732725210
196,pak phanang,8.3511,100.202,24.48,88,100,1.44,TH,1732725211
197,ocean city,39.2776,-74.5746,11.7,54,74,1.79,US,1732725214
198,wailua homesteads,22.0669,-159.378,20.44,94,40,2.57,US,1732725215
199,anna regina,7.2644,-58.5077,29.86,66,38,5.36,GY,1732725216
200,blackfoot,43.1905,-112.345,-1.97,92,99,4.85,US,1732725195
201,inirida,3.8653,-67.9239,33.05,55,92,1.74,CO,1732725220
202,nchelenge,-9.3451,28.734,23.05,82,26,4.53,ZM,1732725221
203,san jose de feliciano,-30.3845,-58.7517,25.0,84,100,1.62,AR,1732725222
204,hato mayor del rey,18.7628,-69.2568,27.57,78,96,3.05,DO,1732725223
205,toliara,-23.35,43.6667,26.57,77,35,0.29,MG,1732725225
206,yuzhno-kurilsk,44.0306,145.8556,8.51,98,98,3.81,RU,1732725226
207,shakawe,-18.3667,21.85,29.04,40,48,4.08,BW,1732725227
208,pisco,-13.7,-76.2167,20.03,83,75,4.12,PE,1732725228
209,sinop,41.7711,34.8709,-0.87,84,3,4.05,TR,1732725229
210,belmopan,17.25,-88.7667,27.92,55,4,1.08,BZ,1732725230
211,vangaindrano,-23.35,47.6,25.2,82,17,3.95,MG,1732725231
212,st. john's,47.5649,-52.7093,3.87,90,75,3.09,CA,1732725138
213,weno,7.4515,151.8468,26.97,89,100,2.57,FM,1732725234
214,puerto lleras,3.0223,-73.4044,29.93,67,93,1.4,CO,1732725235
215,chonchi,-42.6128,-73.8092,11.73,85,42,1.08,CL,1732725236
216,seka,17.9285,103.9552,18.66,74,100,2.51,TH,1732725237
217,tyukhtet,56.5389,89.3011,-3.55,76,20,4.77,RU,1732725240
218,makuyuni,-4.7333,38.1,27.17,64,38,2.04,TZ,1732725241
219,mata-utu,-13.2816,-176.1745,27.63,81,58,5.85,WF,1732725242
220,calvia,39.5657,2.5062,17.73,73,45,1.65,ES,1732725243
221,susuman,62.7833,148.1667,-33.51,97,38,0.13,RU,1732725194
222,palmer,42.1584,-72.3287,8.62,66,75,4.63,US,1732725245
223,ligaya,12.6599,120.8923,25.71,74,93,1.3,PH,1732725247
224,kumylzhenskaya,49.8809,42.5898,1.66,84,100,2.38,RU,1732725248
225,nova vicosa,-17.8919,-39.3719,27.84,62,69,6.4,BR,1732725249
226,springbok,-29.6643,17.8865,17.7,40,0,7.96,ZA,1732725251
227,castillos,-34.1667,-53.8333,23.7,77,100,2.04,UY,1732725252
228,arraial do cabo,-22.9661,-42.0278,32.98,55,0,6.17,BR,1732725167
229,ulcinj,41.9294,19.2244,12.21,77,32,0.65,ME,1732725255
230,salinas,36.6777,-121.6555,12.26,79,100,2.06,US,1732725043
231,olonkinbyen,70.9221,-8.7187,-7.92,89,100,12.46,SJ,1732725257
232,thakurgaon,26.0333,88.4667,19.65,61,19,1.51,BD,1732725258
233,plabennec,48.5024,-4.4266,11.01,81,20,3.09,FR,1732725260
234,kharkhorin,47.1975,102.8238,-3.14,45,88,4.96,MN,1732725262
235,kavaratti,10.5669,72.642,28.29,71,100,3.78,IN,1732725263
236,constantia,44.1833,28.65,4.38,74,97,2.98,RO,1732725246
237,talara,-4.5772,-81.2719,27.42,54,0,7.2,PE,1732725265
238,shibirghan,36.6676,65.7529,15.29,34,55,5.76,AF,1732725266
239,horodnya,51.8909,31.5974,-3.82,94,100,2.05,UA,1732725267
240,poyang,28.9924,116.6675,10.57,43,20,2.19,CN,1732725268
241,kruisfontein,-34.0033,24.7314,15.41,80,23,7.8,ZA,1732725270
242,mount isa,-20.7333,139.5,23.87,94,100,3.09,AU,1732725271
243,culpeper,38.5004,-77.9664,10.88,48,0,1.34,US,1732725272
244,karratha,-20.7377,116.8463,27.61,65,90,2.27,AU,1732725273
245,ancud,-41.8697,-73.8203,12.85,65,68,4.38,CL,1732725138
246,dampit,-8.2116,112.7493,22.43,98,100,1.25,ID,1732725275
247,bejaia,36.7559,5.0843,17.6,88,40,2.06,DZ,1732725277
248,kailua-kona,19.6406,-155.9956,21.98,79,0,2.06,US,1732725278
249,cole harbour,44.6724,-63.4751,7.62,87,75,2.06,CA,1732725279
250,la'ie,21.6477,-157.9253,22.84,84,2,2.68,US,1732725280
251,borzya,50.3833,116.5167,-13.42,76,99,4.07,RU,1732725135
252,qui nhon,13.7667,109.2333,24.16,90,100,9.3,VN,1732725284
253,mae hong son,19.3003,97.9685,21.82,88,69,1.27,TH,1732725286
254,gulf shores,30.246,-87.7008,21.21,76,20,1.79,US,1732725287
255,punta arenas,-53.15,-70.9167,10.06,66,0,5.66,CL,1732725170
256,touros,-5.1989,-35.4608,28.89,57,97,7.62,BR,1732725289
257,tsiombe,-25.3,45.4833,27.81,64,19,1.34,MG,1732725291
258,port moresby,-9.4431,147.1797,26.68,89,40,1.54,PG,1732725292
259,susangerd,31.5608,48.1831,14.45,36,41,7.13,IR,1732725293
260,remire-montjoly,4.9167,-52.2667,31.02,70,20,6.69,GF,1732724998
261,serhetabat,35.2799,62.3438,18.9,28,99,1.64,TM,1732725295
262,kavieng,-2.5744,150.7967,27.89,80,96,5.77,PG,1732725296
263,ust-nera,64.5667,143.2,-21.64,96,100,1.38,RU,1732725298
264,la passe,45.5549,-0.8967,12.91,85,88,3.97,FR,1732725299
265,billings,45.7833,-108.5007,0.87,59,75,5.66,US,1732725001
266,bondo,3.8146,23.6866,24.33,69,93,1.7,CD,1732725301
267,al burayqah,30.4062,19.5739,18.94,52,100,1.54,LY,1732725302
268,batang,-6.4846,110.7083,27.89,79,100,2.41,ID,1732725303
269,brookings,44.3114,-96.7984,-7.0,92,100,2.06,US,1732725305
270,lazaro cardenas,17.9583,-102.2,27.74,70,7,1.47,MX,1732725287
271,rajanpur,29.1035,70.325,21.46,25,0,1.06,PK,1732725307
272,vrontados,38.4089,26.1328,12.92,71,0,1.54,GR,1732725308
273,chibougamau,49.9168,-74.3659,-3.21,93,100,4.12,CA,1732725190
274,jamestown,42.097,-79.2353,5.57,66,100,5.14,US,1732725310
275,sao joao da barra,-21.6403,-41.0511,33.05,77,25,7.43,BR,1732725312
276,malango,-2.9627,119.9001,19.48,99,67,1.0,ID,1732725313
277,vernon,50.2581,-119.2691,-0.04,83,95,1.03,CA,1732725314
278,saint-denis,48.9167,2.3333,14.49,93,100,7.72,FR,1732725315
279,choibalsan,48.0667,114.5,-9.77,70,13,5.94,MN,1732725316
280,kaman,27.65,77.2667,17.71,30,0,1.5,IN,1732725318
281,thompson,55.7435,-97.8558,-9.91,85,75,3.09,CA,1732725319
282,nelson bay,-32.7167,152.15,21.17,98,100,2.24,AU,1732725320
283,acarau,-2.8856,-40.12,30.89,56,100,9.09,BR,1732725321
284,port alfred,-33.5906,26.891,19.54,72,6,4.92,ZA,1732725322
285,lyubinskiy,55.1542,72.6925,-13.88,94,14,2.02,RU,1732725323
286,hasaki,35.7333,140.8333,16.86,55,34,10.42,JP,1732725325
287,micheweni,-4.9667,39.8333,27.11,80,57,4.51,TZ,1732725326
288,aldan,58.6031,125.3894,-22.08,98,100,0.53,RU,1732725327
289,kish,26.5578,54.0194,27.15,69,0,2.06,IR,1732725328
290,juegang,32.3174,121.1855,4.2,55,0,4.49,CN,1732725329
291,al mutayrifi,25.4788,49.5576,23.19,84,2,9.82,SA,1732725330
292,taltal,-25.4,-70.4833,19.11,70,35,3.7,CL,1732725331
293,tarawa,1.419,172.984,29.05,74,20,5.66,KI,1732725333
294,plastun,44.7561,136.2939,-4.41,63,28,4.56,RU,1732725334
295,glace bay,46.1969,-59.957,6.75,97,100,3.09,CA,1732725327
296,markova,48.6758,24.4138,2.22,92,100,1.61,UA,1732725336
297,arkhangel'sk,64.5401,40.5433,2.06,100,100,0.0,RU,1732725090
298,sinabang,2.4803,96.3801,26.4,85,100,1.5,ID,1732725338
299,grossraschen,51.5833,14.0,7.02,87,91,4.77,DE,1732725340
300,tanjung pinang,0.9167,104.45,26.66,81,90,3.36,ID,1732725149
301,jayapura,-2.5333,140.7,25.66,96,67,2.03,ID,1732725342
302,moanda,-1.5575,13.2178,30.13,87,79,1.47,GA,1732725344
303,san-pedro,4.7485,-6.6363,27.99,71,31,3.77,CI,1732725345
304,mana,5.6592,-53.7767,29.93,64,48,4.95,GF,1732725346
305,launceston,-41.45,147.1667,16.8,94,100,7.72,AU,1732725347
306,nakatunguru,-2.1167,33.0667,22.82,74,23,4.38,TZ,1732725349
307,braslaw,55.644,27.0455,3.96,89,100,2.2,BY,1732725350
308,aykhal,66.0,111.5,-15.99,99,87,3.3,RU,1732725195
309,badiyah,22.45,58.8,24.49,55,0,6.03,OM,1732725352
310,margate,51.3813,1.3862,6.6,81,100,0.89,GB,1732725314
311,happy valley-goose bay,53.3168,-60.3315,-0.83,80,100,3.09,CA,1732725354
312,hirara,24.8,125.2833,18.92,63,40,8.23,JP,1732725355
313,mount pearl,47.5166,-52.7813,3.41,91,75,3.09,CA,1732725357
314,shenjiamen,29.9576,122.298,9.63,49,0,8.2,CN,1732725358
315,newman,37.3138,-121.0208,10.58,66,76,3.13,US,1732725359
316,bryne,58.7354,5.6477,5.44,91,20,0.51,NO,1732725361
317,tagab,34.855,69.6492,8.35,23,1,0.64,AF,1732725364
318,saldanha,-33.0117,17.9442,20.03,68,0,10.65,ZA,1732725365
319,tanjung selor,2.8372,117.3642,23.23,97,50,0.6,ID,1732725366
320,taulaga,-11.0553,-171.0883,27.87,75,83,2.77,AS,1732725367
321,geraldton,-28.7667,114.6,16.23,72,0,4.63,AU,1732725368
322,katsuura,35.1333,140.3,16.69,62,7,12.26,JP,1732725371
323,key west,24.5557,-81.7826,26.0,69,0,4.12,US,1732725269
324,broome,42.2506,-75.833,6.16,66,75,2.57,US,1732725373
325,zelenogorsk,56.1147,94.5861,1.44,58,100,7.63,RU,1732725374
326,rawson,-43.3002,-65.1023,15.16,63,100,5.14,AR,1732725375
327,tromso,69.6496,18.957,2.01,69,75,5.66,NO,1732725309
328,merizo village,13.2658,144.6691,28.31,88,29,8.52,GU,1732725377
329,san antonio de pale,-1.4014,5.6325,25.8,84,30,4.27,GQ,1732725379
330,yatou,37.15,122.3833,-0.86,40,0,6.08,CN,1732725380
331,praia da vitoria,38.7333,-27.0667,19.14,63,40,9.3,PT,1732725381
332,laguna,38.421,-121.4238,7.25,85,0,3.6,US,1732725382
333,suratgarh,29.3167,73.9,19.97,22,0,2.79,IN,1732725383
334,baniachang,24.5167,91.3667,20.07,68,88,1.39,BD,1732725384
335,conception bay south,47.4999,-52.9981,3.74,91,94,2.43,CA,1732725386
336,sao felix do xingu,-6.6447,-51.995,34.2,42,66,2.08,BR,1732725387
337,buala,-8.145,159.5921,26.84,82,98,3.08,SB,1732725388
338,heroica guaymas,27.9333,-110.9,16.65,63,75,0.0,MX,1732725260
339,milisauti,47.7833,26.0,4.47,93,99,0.57,RO,1732725390
340,pucallpa,-8.3791,-74.5539,30.02,70,75,4.12,PE,1732725391
341,petropavlovsk-kamchatsky,53.0452,158.6483,-5.67,68,0,3.0,RU,1732725136
342,molchanovo,57.5817,83.7692,-4.46,83,2,3.36,RU,1732725394
343,keflavik,64.0049,-22.5624,4.24,81,75,8.75,IS,1732725396
344,beloyarskiy,63.7119,66.6722,1.18,97,99,2.72,RU,1732725397
345,altea,38.5989,-0.0514,17.1,99,2,1.67,ES,1732725398
346,carbonear,47.7332,-53.2148,3.97,90,93,2.45,CA,1732725400
347,sao paulo de olivenca,-3.3783,-68.8725,32.82,63,85,1.74,BR,1732725401
348,sola,-13.8833,167.55,27.59,79,98,5.71,VU,1732725402
349,manicore,-5.8092,-61.3003,36.76,37,99,1.89,BR,1732725403
350,victoria falls,-17.9235,25.843,25.06,78,40,2.57,ZW,1732725110
351,pangody,65.85,74.4859,1.48,91,100,9.91,RU,1732725136
352,yung shue wan,22.2333,114.1167,19.23,42,31,5.34,HK,1732725407
353,pyay,18.8167,95.2167,21.87,82,35,2.43,MM,1732725408
354,saipan,15.1355,145.701,27.39,92,75,9.77,MP,1732725409
355,makokou,0.5738,12.8642,22.03,96,72,0.1,GA,1732725410
356,krasnoufimsk,56.6059,57.7669,-5.71,90,72,1.38,RU,1732725411
357,pesnica,46.6258,15.7128,7.95,94,75,3.6,SI,1732725412
358,santo tome,-31.6627,-60.7653,27.23,84,74,0.89,AR,1732725414
359,wamba,8.9333,8.6,27.33,26,1,1.59,NG,1732725415
360,fale old settlement,-9.3852,-171.2468,28.56,71,90,4.62,TK,1732725416
361,sheregesh,52.9209,87.9869,-7.24,88,12,1.32,RU,1732725417
362,las trojes,14.0667,-85.9833,25.5,63,26,3.16,HN,1732725418
363,taroa,8.7058,171.2275,27.83,80,98,8.46,MH,1732725419
364,fallon,39.4735,-118.7774,-4.07,86,40,2.06,US,1732725420
365,pontianak,-0.0333,109.3333,25.99,94,100,1.03,ID,1732725422
366,mpulungu,-8.7623,31.1141,23.66,77,79,1.57,ZM,1732725423
367,zuunmod,47.7069,106.9528,-12.43,61,100,9.75,MN,1732725424
368,hotan,37.0997,79.9269,1.63,33,0,1.75,CN,1732725425
369,kapshagay,43.8833,77.0833,6.21,41,0,4.98,KZ,1732725426
370,tongren,27.7172,109.1853,10.17,75,67,0.54,CN,1732725427
371,brisas de zicatela,15.8369,-97.0419,28.29,54,0,1.03,MX,1732725429
372,ola,59.5833,151.2833,-14.0,84,10,3.46,RU,1732725194
373,khandyga,62.6667,135.6,-19.08,98,100,0.92,RU,1732725431
374,reggane,26.7158,0.1714,24.24,16,77,4.01,DZ,1732725432
375,woodward,36.4337,-99.3904,6.65,75,0,6.69,US,1732725433
376,codrington,-38.2667,141.9667,11.25,94,13,1.16,AU,1732725434
377,panacan,9.2463,118.4082,26.89,84,100,4.77,PH,1732725436
378,douentza,14.9951,-2.9517,30.69,13,45,4.52,ML,1732725437
379,fraserburgh,57.6874,-2.0184,5.56,64,65,5.31,GB,1732725438
380,coxim,-18.5067,-54.76,34.24,41,98,3.71,BR,1732725439
381,xilin hot,43.9667,116.0333,-9.76,71,100,8.83,CN,1732725440
382,khanty-mansiysk,61.0042,69.0019,-2.94,59,0,5.0,RU,1732725441
383,farshut,26.0549,32.1633,16.75,32,0,4.68,EG,1732725444
384,havre,49.5833,0.3333,9.22,87,100,6.69,FR,1732725445
385,berdigestyakh,62.0989,126.6992,-33.3,100,38,1.44,RU,1732725446
386,lompoc,34.6391,-120.4579,14.45,97,100,1.54,US,1732725447
387,ca mau,9.1769,105.15,25.01,87,100,4.19,VN,1732725448
388,vilyuysk,63.7553,121.6247,-16.0,95,100,3.3,RU,1732725449
389,santa ana de yacuma,-13.75,-65.4333,31.97,62,75,7.72,BO,1732725450
390,iranshahr,27.2025,60.6848,25.19,31,0,0.0,IR,1732725452
391,road town,18.4167,-64.6167,30.02,70,40,2.57,VG,1732725453
392,sapele,5.8941,5.6767,29.84,43,36,0.36,NG,1732725454
393,andirin,37.5776,36.3549,0.02,64,34,3.6,TR,1732725455
394,camana,-16.6228,-72.7111,20.23,90,100,3.36,PE,1732725456
395,san felice circeo,41.2372,13.0942,16.06,81,12,2.58,IT,1732725458
396,dadukou,26.5479,101.7054,8.88,83,65,1.29,CN,1732725459
397,sandnessjoen,66.0217,12.6316,2.06,69,20,3.09,NO,1732725460
398,patiali,27.7167,79.0167,18.31,31,0,1.97,IN,1732725461
399,cabo san lucas,22.8909,-109.9124,26.53,53,0,2.06,MX,1732725260
400,afaahiti,-17.75,-149.2833,25.33,77,96,5.39,PF,1732725463
401,pran buri,12.3847,99.9098,25.35,84,50,2.87,TH,1732725464
402,kontagora,10.3999,5.4695,27.88,22,71,2.09,NG,1732725466
403,banjar,-8.19,114.9675,26.09,93,90,2.28,ID,1732725467
404,port lincoln,-34.7333,135.8667,15.41,83,100,6.75,AU,1732725468
405,nabire,-3.3667,135.4833,24.5,95,98,1.68,ID,1732725469
406,lensk,60.7253,114.9278,-11.33,94,95,3.29,RU,1732725470
407,bel ombre,-4.6167,55.4167,27.91,78,20,2.57,SC,1732725471
408,nuuk,64.1835,-51.7216,-7.66,73,20,7.72,GL,1732725473
409,faya-largeau,17.9257,19.1043,19.48,24,6,6.81,TD,1732725474
410,griffith,41.5284,-87.4237,4.91,63,100,2.57,US,1732725475
411,crane,31.3974,-102.3501,23.54,21,74,6.06,US,1732725241
412,leticia,-4.2153,-69.9406,28.03,83,75,1.03,CO,1732725477
413,pedernales,18.0384,-71.744,28.33,67,100,1.08,DO,1732725478
414,cambria,35.5641,-121.0808,13.36,78,79,1.34,US,1732725479
415,lijiang,26.8688,100.2207,3.2,86,16,1.61,CN,1732725481
416,luanda,-8.8368,13.2343,27.0,74,40,5.66,AO,1732725469
417,igarka,67.4667,86.5833,0.73,97,100,10.09,RU,1732725483
418,jacmel,18.2342,-72.5347,28.31,72,90,1.69,HT,1732725484
419,istaravshan,39.9142,69.0033,11.34,31,11,2.91,TJ,1732725485
420,maputo,-25.9653,32.5892,24.82,83,100,10.29,MZ,1732725486
421,san mariano,7.5,126.0,23.08,99,100,1.38,PH,1732725487
422,namie,37.4833,141.0,6.66,94,5,2.44,JP,1732725489
423,tchintabaraden,15.8969,5.7985,24.28,13,100,4.62,NE,1732725490
424,shubarshi,48.5872,57.1869,-0.28,62,0,3.26,KZ,1732725491
425,villanueva,15.3167,-88.0,24.55,83,75,3.6,HN,1732725327
426,illizi,26.4833,8.4667,19.99,20,45,2.02,DZ,1732725493
427,novodvinsk,64.4165,40.8122,1.86,100,100,0.47,RU,1732725494
428,okhotsk,59.3833,143.3,-12.16,72,100,3.02,RU,1732725495
429,barmer,25.75,71.3833,23.45,33,0,1.06,IN,1732725497
430,nhamunda,-2.1861,-56.7131,38.35,28,64,2.85,BR,1732725498
431,aban,56.67,96.06,0.59,67,100,6.72,RU,1732725499
432,chernyshevsk,52.5243,117.0174,-16.67,89,100,2.05,RU,1732725500
433,pitea,65.3172,21.4794,-7.66,91,20,2.27,SE,1732725501
434,verkhnevilyuysk,63.4453,120.3167,-15.97,95,97,2.98,RU,1732725502
435,buenavista del norte,28.3746,-16.861,23.02,71,98,2.04,ES,1732725503
436,araruna,-6.5583,-35.7417,31.86,29,96,6.55,BR,1732725505
437,ulysses,37.5814,-101.3552,6.02,100,100,7.2,US,1732725506
438,beira,-19.8436,34.8389,29.05,79,40,6.17,MZ,1732725419
439,vanino,49.0869,140.2543,2.08,99,100,8.54,RU,1732725509
440,ardakan,32.31,54.0175,17.6,50,100,6.6,IR,1732725510
441,selfoss,63.9331,-20.9971,3.91,90,100,9.0,IS,1732725512
442,ciudad lazaro cardenas,17.9583,-102.2,27.74,70,7,1.47,MX,1732725513
443,coronel dorrego,-38.7187,-61.2873,24.67,26,10,5.83,AR,1732725514
444,rice lake,45.5061,-91.7382,-4.82,88,100,2.57,US,1732725515
445,isangel,-19.55,169.2667,24.85,90,100,4.56,VU,1732725516
446,kargopol',61.5071,38.9456,-0.05,98,100,2.68,RU,1732725517
447,kankan,10.3854,-9.3057,33.0,15,0,2.7,GN,1732725519
448,uturoa,-16.7333,-151.4333,26.94,78,92,6.09,PF,1732725520
449,richard-toll,16.4625,-15.7008,36.44,7,53,4.3,SN,1732725521
450,basco,20.4487,121.9702,24.39,77,88,13.87,PH,1732725522
451,bardai,11.65,7.2333,23.15,26,40,3.76,NG,1732725523
452,dong ha,16.8163,107.1003,21.31,89,100,4.02,VN,1732725524
453,new norfolk,-42.7826,147.0587,12.18,99,100,1.66,AU,1732725525
454,box elder,41.5005,-112.8764,1.58,66,15,2.81,US,1732725527
455,sandwip,22.4678,91.4561,24.3,63,100,4.31,BD,1732725528
456,molde,62.7375,7.1591,-2.09,86,20,4.12,NO,1732725529
457,urangan,-25.3,152.9,23.89,88,27,3.34,AU,1732725530
458,gemena,3.25,19.7667,23.46,55,54,0.86,CD,1732725531
459,kalabo,-14.97,22.6814,23.45,66,50,1.47,ZM,1732725532
460,arbuzynka,47.9097,31.3196,0.36,56,100,2.35,UA,1732725533
461,sedona,34.8697,-111.761,13.16,58,100,0.0,US,1732725535
462,mohammedia,33.7066,-7.3944,27.11,34,0,2.06,MA,1732725536
463,kievka,50.2619,71.5514,-10.95,84,5,1.65,KZ,1732725537
464,madalena,41.2162,-8.3345,17.32,76,73,0.21,PT,1732725538
465,pemangkat,1.1667,108.9667,26.32,85,100,3.94,ID,1732725539
466,mogadishu,2.0371,45.3438,26.99,81,77,5.33,SO,1732725540
467,ha'il,27.5219,41.6907,14.01,51,0,3.09,SA,1732725542
468,tabou,4.423,-7.3528,27.95,71,18,3.39,CI,1732725543
469,petrovsk-zabaykal'skiy,51.273,108.843,-7.64,90,94,2.98,RU,1732725545
470,an nuhud,12.7,28.4333,20.09,23,42,5.45,SD,1732725546
471,arish,31.1316,33.7984,17.1,59,40,1.54,EG,1732725547
472,peace river,56.2501,-117.286,-15.75,93,100,1.54,CA,1732725339
473,giyani,-23.3025,30.7187,31.91,33,93,2.12,ZA,1732725550
474,zaozersk,69.4005,32.4476,-8.63,88,4,3.48,RU,1732725551
475,itamaraca,-7.7478,-34.8256,28.27,56,100,5.13,BR,1732725552
476,tofol,5.3248,163.0078,28.02,76,100,10.01,FM,1732725553
477,caleta de carquin,-11.0925,-77.6267,21.85,71,30,4.32,PE,1732725554
478,kudahuvadhoo,2.6708,72.8944,26.66,86,100,6.08,MV,1732725555
479,gourin,48.1387,-3.6076,9.27,96,100,1.73,FR,1732725557
480,al kharijah,25.4514,30.5464,14.79,49,3,3.95,EG,1732725558
481,bandraboua,-12.7044,45.1223,28.82,78,99,4.63,YT,1732725559
482,salym,60.0625,71.4789,-4.09,84,5,3.3,RU,1732725560
483,verdal,63.7933,11.4817,-2.79,89,24,1.55,NO,1732725429
484,oboyan',51.2098,36.2792,-1.33,72,20,0.74,RU,1732725562
485,marsh harbour,26.5412,-77.0636,25.09,68,0,3.57,BS,1732725563
486,kununurra,-15.7667,128.7333,27.99,83,100,3.09,AU,1732725469
487,manzini,-26.25,31.5,18.78,95,71,2.05,SZ,1732725566
488,bodaybo,57.8506,114.1933,-18.9,98,99,0.94,RU,1732725567
489,bertioga,-23.8544,-46.1386,30.0,58,20,3.09,BR,1732725353
490,tamanrasset,22.785,5.5228,21.95,20,0,3.09,DZ,1732725569
491,pingxiang,27.6167,113.85,8.58,61,47,0.8,CN,1732725570
492,ulladulla,-35.35,150.4667,20.77,78,91,2.16,AU,1732725571
493,tosontsengel,48.7567,98.2839,-17.57,95,73,1.3,MN,1732725573
494,kapuskasing,49.4169,-82.4331,-3.95,86,100,8.23,CA,1732725287
495,paita,-5.0892,-81.1144,23.01,67,56,5.13,PE,1732725575
496,gizo,-8.103,156.8419,28.25,77,100,2.51,SB,1732725576
497,orange walk,17.8333,-88.8333,28.14,59,0,0.9,BZ,1732725578
498,veshenskaya,49.6303,41.7334,1.67,85,100,2.37,RU,1732725580
499,chaman,30.9236,66.4512,14.31,30,1,2.13,PK,1732725581
500,lethem,3.3803,-59.7968,36.84,34,79,4.4,GY,1732725582
501,san onofre,9.7359,-75.5263,28.55,76,98,2.47,CO,1732725583
502,quellon,-43.1167,-73.6167,12.04,81,26,2.22,CL,1732725584
503,east ballina,-28.8667,153.5833,22.04,93,50,5.26,AU,1732725585
504,benghazi,32.1167,20.0667,19.47,58,100,3.49,LY,1732725586
505,galveston,29.3669,-94.9669,24.47,84,40,4.63,US,1732725571
506,sittwe,20.15,92.9,24.48,68,91,2.73,MM,1732725590
507,howrah,22.5892,88.3103,22.0,73,20,0.0,IN,1732725591
508,tabuk,17.4189,121.4443,22.38,95,91,2.06,PH,1732725592
509,maxixe,-23.8597,35.3472,26.29,92,94,6.84,MZ,1732725593
510,la libertad,-2.2333,-80.9,24.81,69,40,4.63,EC,1732725333
511,sim,54.993,57.6982,-5.43,95,11,1.03,RU,1732725596
512,ulsteinvik,62.3432,5.8487,1.07,67,67,1.17,NO,1732725597
513,hadibu,12.65,54.0333,26.11,68,86,3.7,YE,1732725598
514,manokwari,-0.8667,134.0833,26.46,81,41,1.48,ID,1732725599
515,bengkulu,-3.8004,102.2655,24.06,94,100,3.45,ID,1732725600
516,kimbe,-5.5502,150.1429,24.94,95,100,1.64,PG,1732725601
517,hami,42.8,93.45,-4.67,63,0,1.43,CN,1732725603
518,dunedin,-45.8742,170.5036,13.22,99,90,1.8,NZ,1732725604
519,vadso,70.0744,29.7487,0.09,74,0,8.23,NO,1732725605
520,mandalay,21.9747,96.0836,20.37,84,56,1.33,MM,1732725606
521,guarapari,-20.6667,-40.4975,27.3,70,4,6.19,BR,1732725607
522,redding,40.5865,-122.3917,9.79,58,0,2.57,US,1732725607
523,oranjemund,-28.55,16.4333,16.54,76,2,10.86,NA,1732725611
524,urmary,55.6789,47.944,-3.43,75,62,1.3,RU,1732725612
525,cidreira,-30.1811,-50.2056,25.39,77,57,4.19,BR,1732725613
526,camarinas,43.1311,-9.1817,15.01,80,83,8.62,ES,1732725614
527,heroica matamoros,25.8833,-97.5,27.94,73,0,8.75,MX,1732725615
528,kuusamo,65.9667,29.1833,-10.98,92,0,0.51,FI,1732725616
529,sydney,-33.8679,151.2073,23.86,80,100,2.73,AU,1732725027
530,pekanbaru,0.5333,101.45,26.18,89,20,2.06,ID,1732725620
531,danilov,58.1908,40.1717,-6.21,95,29,1.93,RU,1732725621
532,hoogerheide,51.4233,4.3258,8.91,87,100,10.8,NL,1732725622
533,minas de matahambre,22.5887,-83.9447,28.25,49,0,3.35,CU,1732725623
534,inhambane,-23.865,35.3833,26.52,91,95,7.47,MZ,1732725625
535,pyrzyce,53.1462,14.8926,2.74,90,95,4.54,PL,1732725627
536,zinder,13.8072,8.9881,26.98,19,99,3.09,NE,1732725629
537,selebi-phikwe,-21.979,27.8498,29.96,35,65,1.79,BW,1732725631
538,madang,-5.2246,145.7966,25.23,89,100,0.54,PG,1732725632
539,fougamou,-1.2154,10.5838,24.48,92,62,0.67,GA,1732725634
540,timimoun,29.2639,0.231,24.21,23,0,5.14,DZ,1732725635
541,bathurst,-33.4166,149.5806,15.54,97,96,0.37,AU,1732725636
542,guiyang,26.5833,106.7167,7.27,87,100,2.0,CN,1732725638
543,meulaboh,4.1363,96.1285,24.84,85,100,2.18,ID,1732725639
544,kita,13.0349,-9.4895,34.01,11,0,2.56,ML,1732725640
545,miquelon,47.0975,-56.3814,6.47,74,100,8.96,PM,1732725641
546,myeik,12.4333,98.6,25.93,77,47,2.33,MM,1732725642
547,revelstoke,50.9832,-118.2023,-0.99,93,100,0.0,CA,1732725643
548,chul'man,56.8479,124.9104,-19.98,99,100,1.31,RU,1732725645
549,colac,-38.3333,143.5833,10.73,96,6,1.42,AU,1732725646
550,pimentel,-6.8367,-79.9342,24.16,60,0,6.17,PE,1732725647
551,callao,-12.0667,-77.15,25.95,68,100,4.12,PE,1732725429
552,sault ste. marie,46.5168,-84.3333,1.16,80,100,7.2,CA,1732725537
553,sindgi,16.9167,76.2333,20.12,43,99,4.44,IN,1732725650
554,bairnsdale,-37.8333,147.6167,18.92,93,24,0.89,AU,1732725652
555,bojia,26.4672,111.9681,12.39,47,100,0.73,CN,1732725653
556,bontang,0.1333,117.5,26.75,85,53,4.89,ID,1732725654
557,new kingman-butler,35.265,-114.0323,12.67,51,100,7.2,US,1732725655
558,guiuan,11.0333,125.7247,28.9,78,92,7.05,PH,1732725658
559,soba,10.9813,8.0575,22.79,27,3,3.67,NG,1732725659
560,fort mcmurray,56.7268,-111.381,-12.23,72,100,7.72,CA,1732725660
561,bandiagara,14.3501,-3.6104,30.23,14,36,5.77,ML,1732725661
562,kyshtovka,56.555,76.6271,-11.72,88,5,1.98,RU,1732725663
563,opuwo,-18.0607,13.84,29.05,16,0,7.73,NA,1732725665
564,awjilah,29.1081,21.2869,15.49,45,6,3.61,LY,1732725666
565,vavoua,7.3819,-6.4778,31.58,29,65,1.91,CI,1732725667
566,barra de santo antonio,-9.4047,-35.5072,27.26,62,60,5.41,BR,1732725668
567,gafargaon,24.4333,90.5667,19.47,69,98,2.66,BD,1732725669
